{"nhits": 2368, "parameters": {"dataset": "etat-du-trafic-en-temps-reel", "rows": 10, "start": 0, "facet": ["denomination"], "format": "json", "timezone": "UTC"}, "records": [{"datasetid": "etat-du-trafic-en-temps-reel", "recordid": "c29dd3cb80be6e605c34a67608b24c7c6bbd7132", "fields": {"traveltimereliability": 22, "traveltime": 6, "predefinedlocationreference": "213972_D", "averagevehiclespeed": 43, "datetime": "2022-11-23T17:05:00+01:00", "gml_id": "v_rva_troncon_fcd.fid-722fb9f8_184a37dfa03_-7ba3", "trafficstatus": "freeFlow", "func_class": 666, "geo_point_2d": [48.116190538539584, -1.718545510658931], "id": 172, "denomination": "Rue de Vezin", "geo_shape": {"coordinates": [[[-1.718007098789906, 48.116206297385425], [-1.719083922527956, 48.116174779693736]]], "type": "MultiLineString"}}, "geometry": {"type": "Point", "coordinates": [-1.718545510658931, 48.116190538539584]}, "record_timestamp": "2022-11-23T16:09:00.696Z"}, {"datasetid": "etat-du-trafic-en-temps-reel", "recordid": "e2bb399c77e2d1d3d91243136e770c8aef8500a8", "fields": {"traveltimereliability": 0, "traveltime": 6, "predefinedlocationreference": "213972_G", "averagevehiclespeed": 46, "datetime": "2022-11-23T17:05:00+01:00", "gml_id": "v_rva_troncon_fcd.fid-722fb9f8_184a37dfa03_-7ba2", "trafficstatus": "freeFlow", "func_class": 666, "geo_point_2d": [48.116082711620635, -1.7185384723316957], "id": 173, "denomination": "Rue de Vezin", "geo_shape": {"coordinates": [[[-1.71907688307834, 48.11606695280734], [-1.718000061585052, 48.116098470433926]]], "type": "MultiLineString"}}, "geometry": {"type": "Point", "coordinates": [-1.7185384723316957, 48.116082711620635]}, "record_timestamp": "2022-11-23T16:09:00.696Z"}, {"datasetid": "etat-du-trafic-en-temps-reel", "recordid": "38ee1a7dff7755a7e9f3966818e45b662ac9cd2f", "fields": {"traveltimereliability": 22, "traveltime": 10, "predefinedlocationreference": "213973_D", "averagevehiclespeed": 38, "datetime": "2022-11-23T17:05:00+01:00", "gml_id": "v_rva_troncon_fcd.fid-722fb9f8_184a37dfa03_-7ba1", "trafficstatus": "heavy", "func_class": 666, "geo_point_2d": [48.11622625426335, -1.717330731272104], "id": 174, "denomination": "Rue de Vezin", "geo_shape": {"coordinates": [[[-1.71665504853073, 48.11624699966081], [-1.717879635223885, 48.11620932565337], [-1.718006435982263, 48.11620631494743]]], "type": "MultiLineString"}}, "geometry": {"type": "Point", "coordinates": [-1.717330731272104, 48.11622625426335]}, "record_timestamp": "2022-11-23T16:09:00.696Z"}, {"datasetid": "etat-du-trafic-en-temps-reel", "recordid": "e615112bca387850ab96a39afd4e74443f87b708", "fields": {"traveltimereliability": 0, "traveltime": 8, "predefinedlocationreference": "213973_G", "averagevehiclespeed": 47, "datetime": "2022-11-23T17:05:00+01:00", "gml_id": "v_rva_troncon_fcd.fid-722fb9f8_184a37dfa03_-7ba0", "trafficstatus": "freeFlow", "func_class": 666, "geo_point_2d": [48.116118412673465, -1.717324177434383], "id": 175, "denomination": "Rue de Vezin", "geo_shape": {"coordinates": [[[-1.718000724390494, 48.11609845286301], [-1.717873502015261, 48.116101473572996], [-1.717872658430409, 48.11610149656887], [-1.716647652585057, 48.1161391834751]]], "type": "MultiLineString"}}, "geometry": {"type": "Point", "coordinates": [-1.717324177434383, 48.116118412673465]}, "record_timestamp": "2022-11-23T16:09:00.696Z"}, {"datasetid": "etat-du-trafic-en-temps-reel", "recordid": "0a816a3fcad47d878e04c9236020258dbe66d8d1", "fields": {"traveltimereliability": 10, "traveltime": 5, "predefinedlocationreference": "213974_D", "averagevehiclespeed": 43, "datetime": "2022-11-23T17:05:00+01:00", "gml_id": "v_rva_troncon_fcd.fid-722fb9f8_184a37dfa03_-7b9f", "trafficstatus": "freeFlow", "func_class": 666, "geo_point_2d": [48.116187195570035, -1.719459815131283], "id": 176, "denomination": "Rue de Vezin", "geo_shape": {"coordinates": [[[-1.719076505041933, 48.11617476802926], [-1.719843125220633, 48.1161996231108]]], "type": "MultiLineString"}}, "geometry": {"type": "Point", "coordinates": [-1.719459815131283, 48.116187195570035]}, "record_timestamp": "2022-11-23T16:09:00.696Z"}, {"datasetid": "etat-du-trafic-en-temps-reel", "recordid": "927085c504845ecf365bbbc4584049887acbbbcc", "fields": {"traveltimereliability": 0, "traveltime": 5, "predefinedlocationreference": "213974_G", "averagevehiclespeed": 40, "datetime": "2022-11-23T17:05:00+01:00", "gml_id": "v_rva_troncon_fcd.fid-722fb9f8_184a37dfa03_-7b9e", "trafficstatus": "freeFlow", "func_class": 666, "geo_point_2d": [48.11607939198688, -1.719467609839692], "id": 177, "denomination": "Rue de Vezin", "geo_shape": {"coordinates": [[[-1.719850919130509, 48.11609181950198], [-1.719084300548875, 48.11606696447176]]], "type": "MultiLineString"}}, "geometry": {"type": "Point", "coordinates": [-1.719467609839692, 48.11607939198688]}, "record_timestamp": "2022-11-23T16:09:00.696Z"}, {"datasetid": "etat-du-trafic-en-temps-reel", "recordid": "d89956fb7e328a567e9f3e7dc0ab7dd81fcec888", "fields": {"traveltimereliability": 60, "traveltime": 5, "predefinedlocationreference": "282910_D", "averagevehiclespeed": 40, "datetime": "2022-11-23T17:05:00+01:00", "gml_id": "v_rva_troncon_fcd.fid-722fb9f8_184a37dfa03_-7b5d", "trafficstatus": "heavy", "func_class": 666, "geo_point_2d": [48.141660552939385, -1.6574809651641385], "id": 242, "denomination": "Avenue G\u00e9n\u00e9ral George S. Patton", "geo_shape": {"coordinates": [[[-1.657539750321508, 48.14143198093755], [-1.657513760393525, 48.14156513752106], [-1.657411317494408, 48.14188634263867]]], "type": "MultiLineString"}}, "geometry": {"type": "Point", "coordinates": [-1.6574809651641385, 48.141660552939385]}, "record_timestamp": "2022-11-23T16:09:00.696Z"}, {"datasetid": "etat-du-trafic-en-temps-reel", "recordid": "3ed04bcf2c31ffbc838804622e19f96ae8982122", "fields": {"traveltimereliability": 60, "traveltime": 3, "predefinedlocationreference": "282910_G", "averagevehiclespeed": 60, "datetime": "2022-11-23T17:05:00+01:00", "gml_id": "v_rva_troncon_fcd.fid-722fb9f8_184a37dfa03_-7b5c", "trafficstatus": "freeFlow", "func_class": 666, "geo_point_2d": [48.14167884717323, -1.6576399122546426], "id": 243, "denomination": "Avenue G\u00e9n\u00e9ral George S. Patton", "geo_shape": {"coordinates": [[[-1.657569023798681, 48.14190887354111], [-1.657672142786964, 48.1415855454831], [-1.657673239912568, 48.14158127034615], [-1.657699649521049, 48.14144596139231]]], "type": "MultiLineString"}}, "geometry": {"type": "Point", "coordinates": [-1.6576399122546426, 48.14167884717323]}, "record_timestamp": "2022-11-23T16:09:00.696Z"}, {"datasetid": "etat-du-trafic-en-temps-reel", "recordid": "e62f16b2b7f3f3e9b46a493d50a1414992254d4e", "fields": {"traveltimereliability": 60, "traveltime": 6, "predefinedlocationreference": "420870_D", "averagevehiclespeed": 45, "datetime": "2022-11-23T17:05:00+01:00", "gml_id": "v_rva_troncon_fcd.fid-722fb9f8_184a37dfa03_-79f3", "trafficstatus": "freeFlow", "func_class": 666, "geo_point_2d": [48.096217086804884, -1.6400969487792443], "id": 604, "denomination": "Rue de Ch\u00e2teaugiron", "geo_shape": {"coordinates": [[[-1.640487472150013, 48.0964262547015], [-1.639706425408475, 48.096007918908285]]], "type": "MultiLineString"}}, "geometry": {"type": "Point", "coordinates": [-1.6400969487792443, 48.096217086804884]}, "record_timestamp": "2022-11-23T16:09:00.696Z"}, {"datasetid": "etat-du-trafic-en-temps-reel", "recordid": "8bc0c35818aed8d92a91077d2ac2b760908b0680", "fields": {"traveltimereliability": 75, "traveltime": 9, "predefinedlocationreference": "420870_G", "averagevehiclespeed": 28, "datetime": "2022-11-23T17:05:00+01:00", "gml_id": "v_rva_troncon_fcd.fid-722fb9f8_184a37dfa03_-79f2", "trafficstatus": "heavy", "func_class": 666, "geo_point_2d": [48.09630138474286, -1.6399963345247905], "id": 605, "denomination": "Rue de Ch\u00e2teaugiron", "geo_shape": {"coordinates": [[[-1.639605810917391, 48.09609221650871], [-1.64038685813219, 48.096510552977]]], "type": "MultiLineString"}}, "geometry": {"type": "Point", "coordinates": [-1.6399963345247905, 48.09630138474286]}, "record_timestamp": "2022-11-23T16:09:00.696Z"}], "facet_groups": [{"name": "denomination", "facets": [{"name": "Route d\u00e9partementale 34", "count": 84, "state": "displayed", "path": "Route d\u00e9partementale 34"}, {"name": "Route nationale 136", "count": 82, "state": "displayed", "path": "Route nationale 136"}, {"name": "Rue de Nantes", "count": 68, "state": "displayed", "path": "Rue de Nantes"}, {"name": "Route d\u00e9partementale 29", "count": 67, "state": "displayed", "path": "Route d\u00e9partementale 29"}, {"name": "Rue de Ch\u00e2teaugiron", "count": 64, "state": "displayed", "path": "Rue de Ch\u00e2teaugiron"}, {"name": "Rue de Lorient", "count": 64, "state": "displayed", "path": "Rue de Lorient"}, {"name": "Rue de Vern", "count": 54, "state": "displayed", "path": "Rue de Vern"}, {"name": "Rue de Foug\u00e8res", "count": 52, "state": "displayed", "path": "Rue de Foug\u00e8res"}, {"name": "Avenue G\u00e9n\u00e9ral George S. Patton", "count": 49, "state": "displayed", "path": "Avenue G\u00e9n\u00e9ral George S. Patton"}, {"name": "Avenue Henri Fr\u00e9ville", "count": 41, "state": "displayed", "path": "Avenue Henri Fr\u00e9ville"}, {"name": "Boulevard de Verdun", "count": 40, "state": "displayed", "path": "Boulevard de Verdun"}, {"name": "Boulevard Jean Mermoz", "count": 38, "state": "displayed", "path": "Boulevard Jean Mermoz"}, {"name": "Boulevard des Alli\u00e9s", "count": 38, "state": "displayed", "path": "Boulevard des Alli\u00e9s"}, {"name": "Rocade Ouest", "count": 37, "state": "displayed", "path": "Rocade Ouest"}, {"name": "Rue de Saint-Malo", "count": 37, "state": "displayed", "path": "Rue de Saint-Malo"}, {"name": "Boulevard Villebois-Mareuil", "count": 36, "state": "displayed", "path": "Boulevard Villebois-Mareuil"}, {"name": "Rue de l'Alma", "count": 33, "state": "displayed", "path": "Rue de l'Alma"}, {"name": "Rue Saint-H\u00e9lier", "count": 32, "state": "displayed", "path": "Rue Saint-H\u00e9lier"}, {"name": "Route d\u00e9partementale 177", "count": 31, "state": "displayed", "path": "Route d\u00e9partementale 177"}, {"name": "Route d\u00e9partementale 288", "count": 29, "state": "displayed", "path": "Route d\u00e9partementale 288"}, {"name": "Rue de Saint-Brieuc", "count": 28, "state": "displayed", "path": "Rue de Saint-Brieuc"}, {"name": "Route nationale 24", "count": 24, "state": "displayed", "path": "Route nationale 24"}, {"name": "Route d\u00e9partementale 173", "count": 23, "state": "displayed", "path": "Route d\u00e9partementale 173"}, {"name": "Route nationale 137", "count": 23, "state": "displayed", "path": "Route nationale 137"}, {"name": "Avenue Aristide Briand", "count": 22, "state": "displayed", "path": "Avenue Aristide Briand"}, {"name": "Boulevard Georges Clemenceau", "count": 22, "state": "displayed", "path": "Boulevard Georges Clemenceau"}, {"name": "Boulevard de la Libert\u00e9", "count": 22, "state": "displayed", "path": "Boulevard de la Libert\u00e9"}, {"name": "Route de Saint-Malo", "count": 22, "state": "displayed", "path": "Route de Saint-Malo"}, {"name": "Rue de Vezin", "count": 22, "state": "displayed", "path": "Rue de Vezin"}, {"name": "Avenue des Pays-Bas", "count": 20, "state": "displayed", "path": "Avenue des Pays-Bas"}, {"name": "Boulevard Emile Combes", "count": 20, "state": "displayed", "path": "Boulevard Emile Combes"}, {"name": "Boulevard de Metz", "count": 20, "state": "displayed", "path": "Boulevard de Metz"}, {"name": "Porte d'Alma", "count": 20, "state": "displayed", "path": "Porte d'Alma"}, {"name": "Porte de Br\u00e9quigny", "count": 20, "state": "displayed", "path": "Porte de Br\u00e9quigny"}, {"name": "Route d\u00e9partementale 175", "count": 20, "state": "displayed", "path": "Route d\u00e9partementale 175"}, {"name": "Route d\u00e9partementale 837", "count": 20, "state": "displayed", "path": "Route d\u00e9partementale 837"}, {"name": "Rue Vaneau", "count": 20, "state": "displayed", "path": "Rue Vaneau"}, {"name": "Rocade Nord", "count": 19, "state": "displayed", "path": "Rocade Nord"}, {"name": "Boulevard de La Tour d'Auvergne", "count": 18, "state": "displayed", "path": "Boulevard de La Tour d'Auvergne"}, {"name": "Rue Jean Gu\u00e9henno", "count": 18, "state": "displayed", "path": "Rue Jean Gu\u00e9henno"}, {"name": "Avenue Sergent Maginot", "count": 17, "state": "displayed", "path": "Avenue Sergent Maginot"}, {"name": "Porte de Maurepas", "count": 17, "state": "displayed", "path": "Porte de Maurepas"}, {"name": "Avenue Gros Malhon", "count": 16, "state": "displayed", "path": "Avenue Gros Malhon"}, {"name": "Mail Fran\u00e7ois Mitterrand", "count": 16, "state": "displayed", "path": "Mail Fran\u00e7ois Mitterrand"}, {"name": "Porte de Brest", "count": 16, "state": "displayed", "path": "Porte de Brest"}, {"name": "Route d\u00e9partementale 463", "count": 16, "state": "displayed", "path": "Route d\u00e9partementale 463"}, {"name": "Porte de Beaulieu", "count": 15, "state": "displayed", "path": "Porte de Beaulieu"}, {"name": "Porte de Lorient", "count": 15, "state": "displayed", "path": "Porte de Lorient"}, {"name": "Porte de Saint-Nazaire", "count": 15, "state": "displayed", "path": "Porte de Saint-Nazaire"}, {"name": "Avenue des Pr\u00e9ales", "count": 14, "state": "displayed", "path": "Avenue des Pr\u00e9ales"}, {"name": "Boulevard de Strasbourg", "count": 14, "state": "displayed", "path": "Boulevard de Strasbourg"}, {"name": "Route de Foug\u00e8res", "count": 14, "state": "displayed", "path": "Route de Foug\u00e8res"}, {"name": "Rue du G\u00e9n\u00e9ral de Gaulle", "count": 14, "state": "displayed", "path": "Rue du G\u00e9n\u00e9ral de Gaulle"}, {"name": "Echangeur des Trois Epines", "count": 13, "state": "displayed", "path": "Echangeur des Trois Epines"}, {"name": "Avenue Fran\u00e7ois Ch\u00e2teau", "count": 12, "state": "displayed", "path": "Avenue Fran\u00e7ois Ch\u00e2teau"}, {"name": "Boulevard L\u00e9on Bourgeois", "count": 12, "state": "displayed", "path": "Boulevard L\u00e9on Bourgeois"}, {"name": "Boulevard Volney", "count": 12, "state": "displayed", "path": "Boulevard Volney"}, {"name": "Boulevard de Ch\u00e9zy", "count": 12, "state": "displayed", "path": "Boulevard de Ch\u00e9zy"}, {"name": "Rue Jules Vall\u00e8s", "count": 12, "state": "displayed", "path": "Rue Jules Vall\u00e8s"}, {"name": "Rue Louis Guilloux", "count": 12, "state": "displayed", "path": "Rue Louis Guilloux"}, {"name": "Porte de Villejean", "count": 11, "state": "displayed", "path": "Porte de Villejean"}, {"name": "Route d\u00e9partementale 137", "count": 11, "state": "displayed", "path": "Route d\u00e9partementale 137"}, {"name": "Boulevard Pierre Mend\u00e8s-France", "count": 10, "state": "displayed", "path": "Boulevard Pierre Mend\u00e8s-France"}, {"name": "Porte de Tiz\u00e9", "count": 10, "state": "displayed", "path": "Porte de Tiz\u00e9"}, {"name": "Route nationale 12", "count": 10, "state": "displayed", "path": "Route nationale 12"}, {"name": "Rue Claude Bernard", "count": 10, "state": "displayed", "path": "Rue Claude Bernard"}, {"name": "Avenue Jean Janvier", "count": 9, "state": "displayed", "path": "Avenue Jean Janvier"}, {"name": "Place de Bretagne", "count": 9, "state": "displayed", "path": "Place de Bretagne"}, {"name": "Boulevard Franklin Roosevelt", "count": 8, "state": "displayed", "path": "Boulevard Franklin Roosevelt"}, {"name": "Porte de Cleunay", "count": 8, "state": "displayed", "path": "Porte de Cleunay"}, {"name": "Rue Malakoff", "count": 8, "state": "displayed", "path": "Rue Malakoff"}, {"name": "Rue d'Isly", "count": 8, "state": "displayed", "path": "Rue d'Isly"}, {"name": "Rue du Clos Courtel", "count": 8, "state": "displayed", "path": "Rue du Clos Courtel"}, {"name": "Porte d'Angers", "count": 7, "state": "displayed", "path": "Porte d'Angers"}, {"name": "Porte des Longchamps", "count": 7, "state": "displayed", "path": "Porte des Longchamps"}, {"name": "Quai de la Pr\u00e9valaye", "count": 7, "state": "displayed", "path": "Quai de la Pr\u00e9valaye"}, {"name": "Rocade Sud", "count": 7, "state": "displayed", "path": "Rocade Sud"}, {"name": "Rond-point de Vaux", "count": 7, "state": "displayed", "path": "Rond-point de Vaux"}, {"name": "Rond-point du Ch\u00e2teau des Marais", "count": 7, "state": "displayed", "path": "Rond-point du Ch\u00e2teau des Marais"}, {"name": "Rond-point du Ponant", "count": 7, "state": "displayed", "path": "Rond-point du Ponant"}, {"name": "Rond-point du P\u00e2tis Fraux", "count": 7, "state": "displayed", "path": "Rond-point du P\u00e2tis Fraux"}, {"name": "Rond-point l'Auge de Pierre", "count": 7, "state": "displayed", "path": "Rond-point l'Auge de Pierre"}, {"name": "Passage Henri Fr\u00e9ville", "count": 6, "state": "displayed", "path": "Passage Henri Fr\u00e9ville"}, {"name": "Porte des Loges", "count": 6, "state": "displayed", "path": "Porte des Loges"}, {"name": "Rond-point de Ker Lann", "count": 6, "state": "displayed", "path": "Rond-point de Ker Lann"}, {"name": "Rond-point de la Croix Rouge", "count": 6, "state": "displayed", "path": "Rond-point de la Croix Rouge"}, {"name": "Rond-point de la Croix Verte", "count": 6, "state": "displayed", "path": "Rond-point de la Croix Verte"}, {"name": "Rond-point de la Martini\u00e8re", "count": 6, "state": "displayed", "path": "Rond-point de la Martini\u00e8re"}, {"name": "Rond-point de la M\u00e9tairie", "count": 6, "state": "displayed", "path": "Rond-point de la M\u00e9tairie"}, {"name": "Route d\u00e9partementale 82", "count": 6, "state": "displayed", "path": "Route d\u00e9partementale 82"}, {"name": "Boulevard Mar\u00e9chal de Lattre de Tassigny", "count": 5, "state": "displayed", "path": "Boulevard Mar\u00e9chal de Lattre de Tassigny"}, {"name": "Porte de Beauregard", "count": 5, "state": "displayed", "path": "Porte de Beauregard"}, {"name": "Porte de la Rigourdi\u00e8re", "count": 5, "state": "displayed", "path": "Porte de la Rigourdi\u00e8re"}, {"name": "Rond-point de Bray", "count": 5, "state": "displayed", "path": "Rond-point de Bray"}, {"name": "Rond-point de Montgermont", "count": 5, "state": "displayed", "path": "Rond-point de Montgermont"}, {"name": "Rond-point des Sorinais", "count": 5, "state": "displayed", "path": "Rond-point des Sorinais"}, {"name": "Rond-point des Villeneuves", "count": 5, "state": "displayed", "path": "Rond-point des Villeneuves"}, {"name": "Rond-point du Haut-Bois", "count": 5, "state": "displayed", "path": "Rond-point du Haut-Bois"}, {"name": "Rue Saint-Martin", "count": 5, "state": "displayed", "path": "Rue Saint-Martin"}, {"name": "Avenue Charles et Raymonde Tillon", "count": 4, "state": "displayed", "path": "Avenue Charles et Raymonde Tillon"}]}]}